ID,station,dataname,lon,lat,satellite,flag,elevation,dist_to_mouth,kx1,ky1,kx2,ky2,dist1,dist2,rivwth,ix,iy,EGM08,EGM96,ix2,iy2,RMSE1,bias1,corr1,RMSE2,bias2,corr2
7260.0,R_MURRAY_GOULBURN_KM1666,HydroWeb,145.1,-36.17,SENTINEL3A,30,98.8,3.72,6123,7367,6123,7399,2979.59,48.59,0.9,3252,1262,7.94,7.8,3250,1262,5.732806,5.6895905,0.4794035393127867,2.1690571,1.9546356,0.49897309093666836
8256.0,R_PARANA_BERMEJITO_KM1611,HydroWeb,-60.27,-25.62,SENTINEL3B,30,104.7,3.97,11768,6739,11673,6739,7951.41,164.39,31.5,1198,1156,21.66,21.69,1198,1157,1.2461796,0.917511,0.5595349120498105,1.3700081,1.0769882,0.5358836468693833
3247.0,R_COLORADO-01_SAN-JUAN_KM1570,HydroWeb,-67.38,-32.33,SENTINEL3A,30,495.1,2.66,3195,2778,3155,2778,3737.02,1311.71,4.05,1128,1224,22.09,21.06,1127,1224,1.7895868,-1.7566223,-0.1225811201704148,5.0250974,-5.001129,-0.2982544690369872
8255.0,R_PARANA_ATIBAIA_KM3212,HydroWeb,-47.14,-22.74,SENTINEL3B,30,540.7,16.77,3437,3226,3437,3288,5812.69,119.0,11.25,1330,1127,-4.97,-4.78,1329,1128,5.354549,-5.342407,0.48203306910773625,13.202077,-13.195496,0.5180892676329418
8311.0,R_PARANA_GRANDE-TRIB-14_KM3116,HydroWeb,-48.09,-20.91,SENTINEL3A,30,487.8,9.27,2220,1169,2298,1091,9806.58,94.16,103.1,1320,1111,-7.19,-7.22,1320,1110,3.8581796,3.83078,0.4097181420403899,1.386411,1.2774353,0.49756248257426744
8534.0,R_PARANA_SAN-FRANCISCO_KM2283,HydroWeb,-64.11,-23.31,SENTINEL3B,30,286.0,1.06,7069,3908,7069,3974,6019.69,99.74,31.5,1159,1133,25.33,25.08,1159,1134,1.4442269,1.4104614,0.8858836656429786,1.4960608,-1.4266357,0.7891506198829839
8533.0,R_PARANA_SAN-FRANCISCO_KM2286,HydroWeb,-64.13,-23.32,SENTINEL3A,30,287.5,4.15,7044,3902,7044,3983,7459.13,74.49,46.3,1159,1133,25.39,25.13,1159,1134,1.052578,-0.88775635,0.3480594661560346,3.473733,-3.4282837,0.032045501134989836
5340.0,R_FORTESCUE_FORTESCUE_KM0490,HydroWeb,119.39,-22.4,SENTINEL3B,30,405.9,2.76,11309,2913,11266,2870,4854.19,792.1,43.07,2995,1125,-5.44,-5.12,2994,1124,0.1626413,0.042266846,0.21789754596762484,0.15778519,0.031066895,0.23172498014214615
7240.0,R_MURCHISON_MURCHISON_KM0749,HydroWeb,118.0,-26.2,SENTINEL3A,30,416.8,0.08,9608,7435,9598,7445,1029.92,573.84,13.5,2981,1163,-17.17,-17.17,2981,1162,0.34881976,-0.190094,0.24106863472514808,2.9069912,-2.8911438,0.24497144823115644
9239.0,R_COOPER-CREEK_DIAMANTINA_KM0910,HydroWeb,140.57,-24.89,SENTINEL3B,30,72.7,0.93,706,5891,675,5860,2717.42,1280.19,0.45,3207,1149,27.03,26.9,3206,1149,0.97761554,0.08291626,0.33155036605496446,1.4645452,-1.0411606,-0.005793277185075371
8427.0,R_PARANA_PARANA-PAVON_KM0266,HydroWeb,-60.22,-33.26,SENTINEL3B,30,1.1,9.57,11711,3920,11712,3921,2326.83,2312.75,1587.08,1198,1233,16.78,16.84,1198,1233,1.3535522,0.021624565,0.8091077315964015,1.3535522,0.021624565,0.8091077315964015
4407.0,R_CUANZA_LWANDO_KM0627,HydroWeb,16.82,-10.33,JASON2,30,1057.9,8.9,8175,363,8175,390,2670.27,697.5,25.2,1969,1004,13.56,14.32,1968,1004,1.5871209,1.4119873,0.6430336609504387,2.830312,-2.7391357,0.6553075120783012
3118.0,R_BUZI_REVUE_KM0120,HydroWeb,33.99,-19.82,SENTINEL3B,30,31.7,5.45,4754,11831,4795,11790,5177.85,67.5,35.99,2139,1099,-1.26,-1.79,2140,1098,3.2385137,3.0911427,0.8192483705265735,1.8149761,-1.7170181,0.8103986843116815
12754.0,R_CONGO_LUAPULA_KM4560,HydroWeb,30.64,-11.27,JASON2,30,1173.3,7.24,823,1591,730,1498,7982.7,4148.66,97.58,2108,1013,-9.62,-10.31,2107,1013,0.54772776,0.24987793,0.8514303037439963,0.39648303,-0.115478516,0.8214491456890619
9998.0,R_BETSIBOKA_KAMORO_KM0127,HydroWeb,46.94,-16.52,SENTINEL3B,30,23.2,14.27,8386,7772,8326,7832,7328.3,514.74,27.5,2270,1065,-14.39,-14.39,2270,1066,2.1224263,1.9608536,0.7157594308041373,0.79538476,-0.51742554,0.7325555779624249
2018.0,R_AMAZONAS_RONURO_KM2116,HydroWeb,-53.98,-12.23,SENTINEL3B,30,280.8,1.07,7133,2586,7223,2676,11045.06,602.65,67.66,1259,1022,-7.53,-9.35,1260,1023,5.3406677,-5.298065,0.8431540344089636,5.87276,-5.8494873,0.8497919086844423
3112.0,R_BURDEKIN_BURDEKIN_KM0323,HydroWeb,146.38,-19.99,SENTINEL3A,30,217.6,1.47,7725,11986,7654,11986,6141.62,140.57,65.3,3265,1100,56.28,56.73,3264,1100,5.9161515,-5.8769226,0.7026041465478794,1.7895072,-1.629776,0.6933702238107863
10811.0,R_SAVE_SAVE_KM0141,HydroWeb,34.11,-21.29,SENTINEL3A,30,40.4,7.54,4932,1549,4929,1546,362.76,100.3,31.5,2141,1113,1.25,0.81,2142,1113,0.69500923,0.05858612,0.7884501956780642,0.69573814,0.060165405,0.7881589880890362
5765.0,R_GILBERT_GILBERT_KM0042,HydroWeb,141.32,-16.75,SENTINEL3B,30,7.1,21.98,1579,8102,1582,8102,240.91,70.34,11.25,3214,1068,53.17,53.03,3214,1067,1.2632015,0.9286711,0.634128449206002,1.8602312,-1.7274759,0.7653200950024639
2337.0,R_AMAZONAS_UCAYALI_KM4984,HydroWeb,-73.97,-10.56,JASON2,30,186.9,0.0,7236,657,7225,668,1061.34,612.12,421.59,1062,1006,24.48,26.77,1061,1006,5.925712,-5.816101,0.8682803150297594,9.168992,-9.082184,0.8674717673106516
81.0,R_AMAZONAS_ACUARAUA_KM4082,HydroWeb,-70.6,-7.69,SENTINEL3A,30,148.5,10.78,11304,9249,11279,9224,3309.8,63.23,128.97,1095,978,24.52,24.34,1094,977,3.3081543,-3.0568542,0.6550307758004082,2.0117853,-1.6995392,0.6497848186015037
657.0,R_AMAZONAS_GRANDE_KM3669,HydroWeb,-64.67,-15.88,JASON2,30,161.7,31.32,6466,6974,6391,7049,9682.99,151.35,0.0,1154,1058,22.14,22.51,1154,1059,3.0738518,-2.591034,0.870404904004932,1.8213278,-0.81559753,0.8714998796885759
655.0,R_AMAZONAS_GRANDE_KM3698,HydroWeb,-64.57,-15.93,ENVISAT,30,162.0,15.06,6519,7062,6519,7111,4473.41,108.3,0.0,1156,1060,21.81,21.84,1155,1060,2.219888,-1.3512115,0.9045083610191567,3.8584366,3.4056091,0.896495369422935
656.0,R_AMAZONAS_GRANDE_KM3718,HydroWeb,-64.5,-15.98,ENVISAT,30,167.5,18.92,6672,7100,6595,7177,9890.97,243.32,1319.13,1156,1059,21.36,21.14,1155,1060,3.058711,-1.5056152,0.750471400815698,1.9975994,0.58325195,0.89262938832705
12548.0,R_ZAMBEZI_CUANDO_KM2890,HydroWeb,21.46,-15.58,SENTINEL3A,30,1051.7,12.07,1716,6694,1751,6694,3146.29,110.02,11.25,2015,1055,9.64,10.54,2015,1056,0.93772125,-0.75805664,0.30394638437935173,1.4726704,-1.1461182,0.24710306140179297
10801.0,R_SAVE_SAVE-TRIB-01_KM0555,HydroWeb,32.3,-19.98,SENTINEL3A,30,491.9,0.4,2845,11886,2755,11976,11452.03,124.21,158.17,2124,1099,0.73,1.16,2123,1100,2.1277268,1.6462402,-0.24881213099802887,1.7181324,-1.3947449,-0.2156588538100288
178.0,R_AMAZONAS_AMAZONAS_KM1298,HydroWeb,-59.9,-3.23,SENTINEL3B,30,11.1,11.23,23,3881,126,3881,9121.74,467.68,1075.99,1201,933,-11.81,-11.76,1202,932,4.8118496,-3.5618525,0.9041185444222085,4.8431835,-3.6113453,0.9046556446502555
10729.0,R_SAO-FRANCISCO_DO-SONO_KM2052,HydroWeb,-45.53,-17.09,SENTINEL3B,30,482.6,2.27,5272,8510,5359,8510,7683.26,79.71,199.32,1345,1072,-13.38,-14.43,1345,1071,3.390973,-3.3392334,0.7056750578192172,5.065384,-5.023407,0.7191745349352401
356.0,R_AMAZONAS_BIA_KM2611,HydroWeb,-67.55,-3.9,SENTINEL3A,30,49.4,13.43,2907,4650,2935,4678,3724.42,109.71,310.94,1125,940,10.22,10.8,1125,940,0.6016738,-0.17549133,0.9751978578926187,0.6016738,-0.17549133,0.9751978578926187
117.0,R_AMAZONAS_AMPIYACU_KM3258,HydroWeb,-72.03,-3.37,SENTINEL3B,30,73.1,3.78,9564,4120,9564,4045,6868.81,47.08,1604.81,1080,935,20.23,20.2,1080,934,2.306503,-1.3969269,0.9220168995027421,1.9676085,1.1659698,0.8867159604225887
1831.0,R_AMAZONAS_ANGUSILLA_KM3988,HydroWeb,-74.35,-0.85,SENTINEL3A,30,153.2,8.48,6880,1017,6781,1017,9107.83,184.13,503.04,1058,907,19.57,19.33,1057,909,3.463476,3.2481384,0.7210952023584891,1.1620617,0.26452637,0.6393071478839082
8398.0,R_PARANA_PARAGUAY_KM2605,HydroWeb,-57.32,-19.06,ENVISAT,30,81.1,8.85,3207,10866,3213,10866,729.03,207.26,192.32,1227,1091,13.1,13.76,1227,1091,1.6590431,1.0573578,0.44365104450099874,1.6590431,1.0573578,0.44365104450099874
436.0,R_AMAZONAS_CAMAIURA_KM1548,HydroWeb,-59.55,-5.82,SENTINEL3A,30,18.6,4.66,561,6954,535,6980,3508.34,183.69,167.97,1206,958,-7.87,-7.66,1205,959,3.711434,3.4508305,0.7985069064030641,3.6153216,3.3517761,0.8021973472792674
416.0,R_AMAZONAS_CATETE_KM1252,HydroWeb,-54.07,-6.36,SENTINEL3A,30,187.2,10.14,7129,7632,7120,7632,831.26,2.38,291.57,1260,964,-19.68,-20.37,1260,964,2.5469697,2.0059814,0.8038311460373662,2.5469697,2.0059814,0.8038311460373662
8490.0,R_PARANA_SEPUTUBA_KM3371,HydroWeb,-57.64,-15.9,SENTINEL3B,30,112.0,4.06,2855,7113,2827,7085,3519.56,105.08,51.56,1225,1060,8.02,6.8,1224,1060,3.4941194,-3.4196625,0.7383103488106677,4.5868587,-4.537094,0.7759845001928134
11435.0,R_TOCANTINS_CRIXAS_KM1406,HydroWeb,-48.58,-11.05,SENTINEL3A,30,209.1,11.46,1752,1305,1708,1261,5602.07,113.22,474.31,1315,1011,-16.23,-15.82,1315,1011,4.6352644,-4.3229675,0.38913424061466306,4.6352644,-4.3229675,0.38913424061466306
8517.0,R_PARANA_PARANA-PAVON-TRIB-33_KM2071,HydroWeb,-53.83,-23.35,SENTINEL3B,30,228.7,10.63,7381,4084,7381,4013,5836.83,1994.38,1662.16,1262,1134,0.17,0.29,1261,1133,3.3670256,-3.0390625,0.6245578396249072,2.8151138,2.7742004,0.5574711171497329
589.0,R_AMAZONAS_CUNIUA-TRIB-02_KM2718,HydroWeb,-65.75,-6.37,SENTINEL3B,30,48.8,2.0,5035,7698,5094,7639,7757.85,183.98,224.85,1142,965,10.87,11.11,1143,963,5.459187,5.4176903,0.9306923776668061,6.7218385,6.669239,0.8924237415557721
2049.0,R_AMAZONAS_ITOMANAS_KM3011,HydroWeb,-64.35,-12.57,SENTINEL3B,30,130.5,9.46,6864,3001,6778,3087,11023.97,91.78,481.1,1158,1026,24.72,23.25,1157,1027,2.731316,2.502945,0.9625449010858325,5.093064,4.505783,0.940500396588209
11541.0,R_URUGUAY_CAVEIRAS_KM1715,HydroWeb,-50.87,-27.6,SENTINEL3A,30,683.4,4.15,10903,9072,10952,9121,6082.53,34.77,83.66,1292,1176,5.82,5.77,1292,1177,21.607992,-21.604248,0.8003505301463516,11.884232,-11.873657,0.4617496603772368
1465.0,R_AMAZONAS_MADIDI_KM3409,HydroWeb,-68.18,-13.21,ENVISAT,30,183.6,4.25,2188,3844,2188,3851,1004.85,359.51,12.15,1119,1033,28.05,29.12,1119,1033,2.3462942,2.1920776,0.8337831312299874,2.3462942,2.1920776,0.8337831312299874
11556.0,R_URUGUAY_JAGUARI_KM0783,HydroWeb,-54.99,-29.7,SENTINEL3A,30,73.3,3.03,6015,11737,6015,11639,8914.02,147.38,129.48,1251,1198,10.78,10.49,1250,1197,1.6387249,-1.2917786,0.6309145679730265,1.842966,-1.5635071,0.7064634292045273
2562.0,R_AMAZONAS_JAVARI_KM3803,HydroWeb,-72.95,-5.52,SENTINEL3A,30,96.4,4.54,8456,6630,8453,6630,127.16,149.11,45.16,1072,957,20.23,20.03,1071,956,2.3628526,-2.2504044,0.9839209324357177,2.3807955,-2.2710724,0.9826121236167877
1368.0,R_AMAZONAS_MANURIMI_KM3057,HydroWeb,-67.36,-11.7,SENTINEL3B,30,142.3,20.03,3253,2122,3175,2044,10135.44,123.11,57.16,1128,1018,29.28,28.67,1127,1018,3.5278723,3.3318176,0.9062133994508967,3.3753254,3.1476288,0.874510564241726
1753.0,R_AMAZONAS_PARAGUA_KM3497,HydroWeb,-61.78,-13.58,SENTINEL3B,30,153.1,22.19,9937,4224,9862,4299,9598.14,81.51,168.28,1184,1036,19.14,18.37,1182,1036,2.228822,-2.0206757,0.8328028188164084,4.703115,-4.5901947,0.8235052946197173
1146.0,R_AMAZONAS_JURUA_KM4539,HydroWeb,-72.68,-7.66,ENVISAT,30,165.0,19.82,8801,9202,8789,9190,1380.52,182.12,218.34,1074,977,23.48,23.08,1074,977,5.0153913,-4.6593018,0.8061132438469977,5.0153913,-4.6593018,0.8061132438469977
1476.0,R_AMAZONAS_MANITI_KM3379,HydroWeb,-72.92,-3.55,SENTINEL3B,30,79.9,2.51,8493,4190,8493,4265,7041.75,254.82,1149.18,1071,935,20.14,20.86,1071,936,2.3580706,-1.5923386,0.9071973217043539,2.4184747,1.3695831,0.7527055087761446
955.0,R_AMAZONAS_JAMARI_KM2142,HydroWeb,-63.52,-8.48,ENVISAT,30,53.4,17.63,7735,10175,7783,10175,4259.38,342.02,930.68,1166,985,11.41,10.68,1166,985,4.033492,3.5422554,0.9186317503243114,4.033492,3.5422554,0.9186317503243114
10092.0,R_DESAGUADERO_LLINAUI_KM0801,HydroWeb,-68.99,-16.75,SENTINEL3B,30,3809.0,7.46,1244,8099,1213,8099,2757.21,60.92,632.82,1111,1068,44.58,44.65,1110,1068,1.0517449,0.87158203,-0.6586518612352064,1.0559201,0.8757324,-0.6526982422719473
1024.0,R_AMAZONAS_JAPURA_KM2123,HydroWeb,-65.22,-2.04,JASON2,30,30.9,8.39,5740,2445,5741,2446,228.38,110.01,1211.12,1149,921,1.79,1.84,1148,921,5.648427,-5.284111,0.81459948166066,6.963225,-6.7655373,0.9039381033577516
1566.0,R_AMAZONAS_NAPO-TRIB-03_KM3813,HydroWeb,-74.74,-1.71,SENTINEL3A,30,140.0,2.08,6367,2101,6315,2049,6850.03,57.64,381.13,1054,918,19.39,19.19,1053,918,1.0829006,-0.14811707,0.6335059653967814,1.1438435,-0.41397095,0.6364782323656807
1800.0,R_AMAZONAS_PARU_KM0536,HydroWeb,-53.77,-0.12,ENVISAT,30,191.5,14.1,7376,35,7475,134,13729.71,785.96,74.95,1261,900,-24.82,-25.14,1263,901,45.39993,45.37584,0.5232003402643634,1.6712492,-0.6382141,0.6223125176343665
1206.0,R_AMAZONAS_JUNDIATUBA_KM3159,HydroWeb,-69.9,-5.02,ENVISAT,30,92.6,29.75,123,6025,120,6028,310.0,157.06,94.38,1102,950,19.57,19.59,1101,951,4.8440347,-4.724991,0.8376735683093515,2.195631,-1.8624573,0.8189267638346587
1327.0,R_AMAZONAS_MADEIRA_KM1537,HydroWeb,-60.79,-5.53,JASON2,30,22.4,14.4,11015,6603,11063,6651,4317.98,1945.26,1216.05,1193,956,-6.48,-6.01,1193,956,2.3100138,1.595026,0.9525461698041415,2.3100138,1.595026,0.9525461698041415
1372.0,R_AMAZONAS_MAMORIA_KM3255,HydroWeb,-66.48,-7.51,SENTINEL3A,30,74.8,0.09,4223,9105,4223,9013,8404.58,167.33,390.88,1135,976,15.4,16.11,1136,975,5.5910697,5.2074738,0.9221189014591932,7.216185,6.34655,0.9267028029135664
1663.0,R_AMAZONAS_NEGRO_KM1729,HydroWeb,-62.61,-1.12,ENVISAT,30,15.5,10.2,8919,1246,8919,1347,9718.68,4511.97,1120.43,1175,911,-6.52,-6.77,1174,912,4.4437537,-3.9586716,0.9071518486646803,3.459316,-3.1582775,0.9243410059610699
1873.0,R_AMAZONAS_PURUS_KM2673,HydroWeb,-64.58,-6.82,ENVISAT,30,49.0,1.02,6516,8166,6500,8182,2427.85,367.88,497.62,1155,969,7.72,7.77,1154,969,6.288136,5.5376587,0.9435663776082722,6.5797415,5.896145,0.9435543707485315
3663.0,R_CONGO_KASAI_KM1129,HydroWeb,19.4,-3.94,ENVISAT,30,326.1,1.26,11293,4722,11280,4735,1242.94,463.96,592.5,1995,940,-11.5,-11.69,1994,940,3.3737373,-3.1413574,0.9420227817906324,3.82828,-3.646759,0.9421496285979356
3671.0,R_CONGO_KASAI_KM1172,HydroWeb,19.71,-4.09,ENVISAT,30,333.1,1.6,11650,4881,11650,4904,2488.42,641.17,559.78,1998,941,-12.0,-12.22,1997,941,5.3992577,-5.2048645,0.5792095431943468,6.8128586,-6.6407166,0.5844783552566171
3661.0,R_CONGO_KWA_KM0757,HydroWeb,16.61,-3.05,ENVISAT,30,280.9,7.43,7923,3678,7923,3642,2233.4,1274.97,1156.98,1967,931,-5.02,-5.81,1966,931,4.677408,-4.205963,0.5378333513918756,4.852316,-4.404999,0.5363551545552677
2066.0,R_AMAZONAS_SOLIMOES_KM1339,HydroWeb,-60.21,-3.33,ENVISAT,30,11.1,3.03,11752,3942,11752,4025,4643.76,3163.23,1197.68,1198,933,-11.02,-10.86,1198,934,3.764315,-3.2043352,0.9519998628252827,2.8515458,-2.3774443,0.9419073335281648
830.0,R_AMAZONAS_IGARAPE-ITAPECURU_KM0670,HydroWeb,-54.19,0.52,SENTINEL3B,30,267.4,11.89,7022,11319,6973,11368,6534.69,263.77,173.78,1259,895,-25.45,-26.61,1259,895,10.475379,-10.463226,0.8724818612003055,10.475379,-10.463226,0.8724818612003055
3769.0,R_CONGO_LEFINI_KM0866,HydroWeb,15.4,-3.04,SENTINEL3B,30,316.3,15.14,6493,3631,6480,3644,1803.31,108.27,24.3,1954,930,0.61,0.93,1954,931,1.2901874,1.2623901,0.46698561955915213,0.6111295,0.008300781,0.5512221320342988
3776.0,R_CONGO_LIKOUALA-AUX-HERBES_KM1037,HydroWeb,17.17,-0.83,SENTINEL3B,30,289.9,12.62,8535,924,8608,997,9572.98,83.42,277.35,1972,908,-8.98,-8.99,1972,909,5.1682963,-4.7428894,0.3080233303897264,5.4480824,-5.0787354,0.3280980308114557
1801.0,R_AMAZONAS_PARU_KM0821,HydroWeb,-54.71,1.03,ENVISAT,30,284.9,12.75,6394,10758,6355,10758,3663.74,65.37,16.65,1254,890,-24.98,-26.87,1253,890,4.877476,-4.703583,0.8913045086975887,4.4528594,-4.2677,0.8876380750201753
1802.0,R_AMAZONAS_PARU_KM0827,HydroWeb,-54.71,1.07,ENVISAT,30,284.9,12.25,6390,10760,6346,10716,5560.69,267.36,9.0,1254,890,-24.99,-26.91,1253,890,5.5828786,-5.418274,0.8610936632341237,5.1528177,-4.9801636,0.858474565485168
664.0,R_AMAZONAS_GUAINIA_KM2713,HydroWeb,-67.16,2.14,ENVISAT,30,79.5,10.8,3409,9431,3401,9431,497.8,263.38,264.69,1129,879,-0.5,0.3,1128,879,4.444077,4.2894897,0.8974241627449421,4.5052485,4.374161,0.9014323546514936
10406.0,R_GRANDE-DE-MINDANAO_GRANDE-DE-MINDANAO_KM0087,HydroWeb,124.67,6.94,SENTINEL3A,30,3.2,12.98,5592,3709,5615,3686,3830.5,1427.83,7.2,3047,831,72.55,73.07,3047,831,1.1006091,-1.0081344,0.8384831603790333,1.1006091,-1.0081344,0.8384831603790333
7971.0,R_NILE_WHITE-NILE_KM4084,HydroWeb,30.8,9.46,SENTINEL3A,30,388.0,3.22,963,654,964,653,94.71,38.3,59.61,2108,806,-6.3,-6.74,2108,806,3.7986076,3.7956848,0.8190487232033448,3.7986076,3.7956848,0.8190487232033448
4131.0,R_CONGO_GIRI_KM1316,HydroWeb,18.13,0.84,SENTINEL3B,30,304.5,5.5,9754,10998,9754,10996,65.4,163.36,51.89,1982,892,-11.46,-10.92,1981,892,1.5273511,-0.74490356,0.5643114275966531,1.4560074,-0.6358948,0.6583929350532085
1620.0,R_AMAZONAS_TEIA_KM2101,HydroWeb,-65.18,-0.54,SENTINEL3B,30,32.4,3.72,5851,709,5785,643,8428.36,203.27,307.09,1149,907,-0.16,-1.04,1148,906,1.4484775,-0.93927765,0.7415985018574943,1.0719204,-0.5883217,0.8580615860373546
6134.0,R_SHEBELLE_JUBBA_KM0117,HydroWeb,42.77,0.22,SENTINEL3A,30,11.9,31.42,3352,11755,3331,11734,2743.19,101.93,0.0,2228,898,-33.86,-33.82,2228,899,2.3304715,1.9449186,0.6964021241140389,1.5012318,0.5714464,0.6637651043033125
4096.0,R_CONGO_LUKENIE_KM1277,HydroWeb,20.05,-3.25,SENTINEL3A,30,315.2,8.42,57,3897,54,3897,123.18,178.13,47.62,2001,933,-14.58,-14.39,2001,932,2.8829646,2.7061768,0.8622252642106858,2.9217675,2.7671814,0.857633833696237
5810.0,R_GRISALVA_GRIJALVA_KM0156,HydroWeb,-93.21,17.96,SENTINEL3A,30,9.6,2.3,8149,2494,8149,2448,4240.77,2.88,0.0,868,722,-10.87,-11.5,868,721,2.8724232,-2.7689905,0.19487964905477528,4.2993503,-4.242613,0.3453896416813868
1438.0,R_AMAZONAS_TURI_KM2570,HydroWeb,-67.87,-1.06,SENTINEL3B,30,58.1,26.84,2560,1372,2560,1276,8825.77,41.08,79.7,1123,912,8.51,8.06,1122,911,1.3757335,1.1094551,0.8233450917246657,1.074745,0.60554886,0.8450952629355468
8194.0,R_PAPALOAPAN_SAN-JUAN_KM0034,HydroWeb,-95.66,18.57,SENTINEL3B,30,0.0,24.57,5171,1719,5203,1719,2941.2,146.47,129.3,844,714,-12.09,-12.14,844,715,0.8432778,0.43438888,0.1775063829212227,1.1321857,0.7960465,0.28991501687094906
4124.0,R_CONGO_M-POKO_KM1743,HydroWeb,18.46,4.43,SENTINEL3A,30,342.8,23.61,10112,6723,10147,6687,4656.59,134.9,11.25,1985,857,-4.66,-4.85,1985,856,1.4095402,-1.0098572,0.6510488415355642,1.5417331,0.7640381,0.48871754675617923
3485.0,R_CONGO_CONGO_KM2001,HydroWeb,23.44,1.36,ENVISAT,30,357.7,7.46,4123,10375,4141,10357,1490.61,862.97,701.89,2035,887,-18.14,-17.99,2036,887,2.2416477,-1.9453735,0.584178372848512,1.8475341,-1.5040894,0.5755582503210235
4025.0,R_CONGO_LWAMA_KM2967,HydroWeb,26.92,-4.74,SENTINEL3A,30,482.5,4.12,8308,5757,8308,5691,6102.74,78.26,774.84,2070,949,-16.59,-16.42,2070,948,1.3209605,0.9213867,0.6575392344365072,1.3690431,1.2492065,0.8162176413968922
4065.0,R_CONGO_MBUJI-MAYI_KM1975,HydroWeb,23.73,-6.03,ENVISAT,30,479.8,10.21,4499,7257,4481,7239,2414.29,122.95,57.61,2038,961,-14.39,-14.12,2038,961,32.669804,-32.65155,0.18934952109781703,32.669804,-32.65155,0.18934952109781703
7652.0,R_NIGER_GONGOLA_KM1258,HydroWeb,12.05,9.56,SENTINEL3B,30,138.9,6.11,2545,605,2465,525,10571.45,236.87,395.53,1922,805,16.6,17.38,1921,804,4.922085,-4.7053223,0.6029392470101756,2.8570757,2.710907,0.6185154956478977
4224.0,R_CONGO_SANKURU_KM1287,HydroWeb,20.47,-4.27,ENVISAT,30,348.4,6.91,567,5187,567,5122,5538.24,451.65,676.8,2006,944,-12.92,-13.21,2005,943,15.614057,-15.568176,0.9250604760028115,17.48347,-17.43808,0.9289968777422581
12864.0,R_OGOOUE_LIBOUMBA_KM0800,HydroWeb,13.61,0.77,ENVISAT,30,473.0,2.44,4338,11093,4338,11079,1300.1,47.29,0.0,1937,893,5.29,4.92,1936,893,6.6780405,-6.636566,0.6077126577891385,8.6511755,-8.613342,0.6468940134467904
10881.0,R_SENEGAL_FERLO_KM0150,HydroWeb,-15.71,16.43,SENTINEL3B,30,0.0,12.04,5222,4221,5153,4290,8877.96,39.6,247.21,1644,736,30.63,30.29,1644,736,1.8101645,1.1853397,0.42972254991273423,1.8101645,1.1853397,0.42972254991273423
8862.0,R_ORINOCO_CARRAO-TRIB-03_KM0880,HydroWeb,-64.39,6.12,SENTINEL3A,30,242.9,3.45,6682,4710,6735,4657,6891.15,119.47,239.51,1156,841,-13.09,-12.2,1156,839,10.317688,10.290329,0.9133701923165906,5.5458503,-5.488983,0.9121971724279946
4292.0,R_CONGO_NZORO_KM3465,HydroWeb,29.59,3.28,ENVISAT,30,760.9,4.94,11404,8162,11503,8063,13274.6,346.4,16.65,2096,868,-10.84,-10.69,2096,867,56.84654,-56.837402,0.2557491643283936,17.88695,-17.862793,0.2424151644129263
4155.0,R_CONGO_OUBANGUI_KM2237,HydroWeb,22.06,4.22,JASON2,30,389.5,2.82,2476,6931,2462,6945,1031.37,824.68,1249.3,2022,858,-9.07,-8.91,2021,859,4.6994405,-4.421692,0.6085277998657497,3.7143464,-3.5423584,0.6470685166422673
4307.0,R_CONGO_UELE_KM2815,HydroWeb,25.9,3.7,ENVISAT,30,584.2,16.71,7078,7580,7078,7550,2202.37,850.5,219.78,2059,863,-11.5,-10.73,2059,863,3.1138852,3.041626,0.604159299125506,3.1138852,3.041626,0.604159299125506
8950.0,R_ORINOCO_GUANARE_KM1382,HydroWeb,-69.58,8.73,SENTINEL3A,30,110.0,31.85,499,1525,505,1519,678.8,101.34,28.78,1104,812,-10.56,-10.97,1105,813,6.211752,6.200325,0.5137165158877647,10.252541,-10.24057,0.5861819288015858
4342.0,R_CONGO_UERE_KM2718,HydroWeb,25.29,3.61,SENTINEL3B,30,559.2,9.71,6435,7760,6345,7670,11650.16,149.32,303.23,2054,865,-11.29,-10.7,2053,864,5.5391397,5.4089355,0.6668342808185586,6.0101724,5.8410645,0.3987398827745296
9076.0,R_ORINOCO_SIPAPO_KM1299,HydroWeb,-67.55,4.53,SENTINEL3A,30,81.5,8.26,2943,6627,2943,6562,5859.62,158.93,24.3,1125,856,-4.2,-4.52,1125,855,0.9063938,-0.08598328,0.8822221220858905,1.2176917,-0.8014908,0.8717638062939487
3072.0,R_BRAVO_FLORIDO_KM2050,HydroWeb,-104.85,27.17,SENTINEL3A,30,1361.6,12.5,6136,3393,6197,3393,3627.94,1705.71,11.25,751,630,-22.38,-22.23,752,629,13.59419,13.563843,-0.5174018143249146,11.862025,-11.838989,-0.1936737495108892
10660.0,R_SAN-PEDRO_TUNAL_KM0527,HydroWeb,-104.53,24.1,SENTINEL3B,30,1859.7,0.72,6616,7030,6564,7082,6582.85,147.67,0.0,755,659,-19.49,-19.26,754,659,0.72139937,0.55615234,-0.10088407441631984,0.70159787,0.6529541,-0.1051742571972464
10659.0,R_SAN-PEDRO_TUNAL_KM0537,HydroWeb,-104.58,24.13,SENTINEL3B,30,1860.9,7.33,6587,7004,6520,7071,7948.2,3160.38,0.0,755,659,-19.57,-19.32,754,659,2.891659,-2.8148193,-0.4135353930518363,2.742121,-2.7000732,-0.46819124716572474
5681.0,R_GANGES-BRAHMAPUTRA_GANGES_KM1805,HydroWeb,79.18,27.73,ENVISAT,30,151.8,15.92,10989,2748,11024,2713,3557.47,907.91,11.25,2591,623,-60.97,-60.82,2592,623,2.230818,2.100586,0.9206420718665461,2.9429278,-2.5558777,0.8650242286447088
5693.0,R_GANGES-BRAHMAPUTRA_GANGES_KM1806,HydroWeb,79.18,27.73,ENVISAT,30,151.8,15.92,10989,2748,11024,2713,3447.49,965.34,11.25,2591,623,-60.97,-60.82,2592,623,2.2013452,2.0772858,0.8939192904730366,3.0746267,-2.600769,0.8275038283111152
5682.0,R_GANGES-BRAHMAPUTRA_GANGES_KM1810,HydroWeb,79.17,27.77,ENVISAT,30,153.7,5.95,10949,2675,11002,2675,4954.34,614.34,11.25,2591,622,-60.85,-60.73,2592,623,2.1640787,2.001587,0.8041630882395316,3.9864943,-3.676117,0.7950012309004614
5505.0,R_GANGES-BRAHMAPUTRA_GANGES_KM1811,HydroWeb,79.16,27.78,SENTINEL3A,30,154.0,8.81,10922,2663,10998,2663,6099.12,234.41,44.76,2591,622,-60.79,-60.68,2592,623,1.7203046,1.5879517,0.7759390812862975,4.4225225,-4.1348114,0.7917570424838805
10333.0,R_BENGAL_BENGAL_KM0027,HydroWeb,93.22,20.38,SENTINEL3A,30,0.7,20.3,3849,11605,3850,11604,5386.24,5272.64,381.46,2733,696,-52.22,-52.53,2733,696,1.3349829,-1.1385748,0.554975244828037,1.3349829,-1.1385748,0.554975244828037
5514.0,R_GANGES-BRAHMAPUTRA_RAMGANGA_KM1701,HydroWeb,79.82,27.2,SENTINEL3B,30,123.3,20.15,11727,3359,11779,3359,4509.01,216.51,31.5,2599,629,-63.22,-62.85,2598,628,3.6815615,-3.3750076,0.5787206672224243,0.71927,0.3125,0.7735172814325991
5581.0,R_GANGES-BRAHMAPUTRA_RAMGANGA_KM1779,HydroWeb,79.61,27.69,SENTINEL3B,30,141.7,18.24,11497,2769,11526,2769,2575.06,312.9,56.33,2597,624,-62.53,-62.06,2597,624,0.8189101,-0.58891296,0.9260034017160775,0.8189101,-0.58891296,0.9260034017160775
5657.0,R_GANGES-BRAHMAPUTRA_YAMUNA_KM1856,HydroWeb,79.01,26.69,SENTINEL3B,30,105.0,12.21,10740,3968,10816,3968,6165.45,248.72,198.24,2589,633,-60.83,-60.3,2591,634,7.692958,-5.5783234,0.7015134313858755,3.385178,3.1802673,0.805971030691072
5940.0,R_INDUS_INDUS_KM0958,HydroWeb,70.08,28.66,SENTINEL3B,30,79.4,3.72,152,1600,105,1600,4629.86,1081.96,401.81,2502,614,-46.56,-46.06,2502,614,3.186017,-2.4621887,0.9062070320201024,3.186017,-2.4621887,0.9062070320201024
10620.0,R_SAKRAMENTO_PUTAH-CREEK_KM0062,HydroWeb,-121.62,38.4,SENTINEL3A,30,1.8,14.5,10123,1995,10056,1928,8194.81,339.16,173.7,586,516,-31.22,-31.3,584,516,1.750962,1.2793429,0.0695523139632602,2.8782167,2.5194936,0.04946698954617909
10621.0,R_SAKRAMENTO_PUTAH-CREEK_KM0075,HydroWeb,-121.59,38.5,SENTINEL3A,30,4.0,2.26,10130,1800,10099,1800,2677.2,446.66,151.53,585,515,-30.82,-31.03,584,516,2.0548015,1.6942127,0.4279321624687763,2.0447204,1.6878934,0.42605505743910643
6649.0,R_MISSISSIPPI_ARKANSAS_KM2860,HydroWeb,-103.51,37.99,SENTINEL3B,30,1235.3,2.55,7773,2391,7788,2406,1876.91,111.21,11.25,765,520,-22.38,-22.31,765,521,2.3049636,2.241333,0.6741399406821033,10.18611,-10.158203,0.6354320142493041
10248.0,R_MERMENTAU_MERMENTAU_KM0104,HydroWeb,-92.58,30.21,SENTINEL3A,30,3.6,9.24,8853,11699,8905,11751,6368.39,132.89,11.25,874,597,-28.61,-28.43,875,598,4.502659,4.4842343,0.6033411482703331,3.3291569,3.3065996,0.6242976782323866
6005.0,R_IRRAWADDY_CHINDWIN_KM1791,HydroWeb,96.6,26.43,JASON2,30,189.6,8.99,7920,4315,7920,4280,3269.92,39.6,98.03,2766,637,-49.05,-48.39,2767,636,7.4940424,-7.3927765,0.8681362961562421,7.3915033,-7.360794,0.8671198594702713
5541.0,R_GANGES-BRAHMAPUTRA_KOSHI_KM0705,HydroWeb,86.72,26.31,SENTINEL3B,30,57.1,5.74,8015,4392,8065,4442,5186.16,1083.65,287.59,2667,637,-62.5,-62.59,2666,639,5.971731,-5.865059,0.6933079210323302,14.522788,-14.471413,0.7265820092632984
7039.0,R_MISSISSIPPI_OHIO-TRIB-01_KM1740,HydroWeb,-88.19,37.6,SENTINEL3A,30,103.0,0.12,2235,2879,2178,2879,4194.76,94.39,896.28,919,524,-30.37,-30.41,919,525,4.2725124,3.4392776,0.7575296741974437,4.1267877,3.249611,0.7559939121233491
9978.0,R_BALKAN_BALKAN_KM0010,HydroWeb,53.73,39.91,SENTINEL3A,30,-27.2,4.04,4487,80,4467,100,2447.99,1172.17,1462.4,2338,501,-16.51,-16.63,2338,501,0.44065875,-0.2453556,0.09992805680186302,0.44065875,-0.2453556,0.09992805680186302
9822.0,R_ARAL-DRAINAGE_AMUDARYA_KM0864,HydroWeb,62.58,39.78,SENTINEL3B,30,159.7,1.96,3095,257,3088,257,464.58,488.84,300.34,2426,503,-33.4,-33.37,2426,503,1.8179414,-0.70376587,0.9332940400881888,1.8179414,-0.70376587,0.9332940400881888
7004.0,R_MISSISSIPPI_NEOSHO_KM2139,HydroWeb,-95.88,38.28,SENTINEL3A,30,316.3,0.52,5005,2063,4947,2063,4087.09,141.14,17.55,842,517,-31.55,-31.69,842,518,2.5669327,-2.4046326,0.8734274964726279,3.0635006,-2.8580933,0.8616476241182357
8593.0,R_PEARL_PEARL_KM0114,HydroWeb,-89.89,30.63,SENTINEL3A,30,12.7,13.93,219,11240,130,11240,6893.21,464.79,56.88,903,593,-28.63,-28.71,901,594,4.9121575,-4.863968,0.399977161636988,2.3994775,-2.3353653,0.6493909391010715
5959.0,R_INDUS_INDUS-TRIB-05_KM1398,HydroWeb,70.94,31.93,SENTINEL3A,30,168.6,2.43,1206,9690,1132,9690,5871.49,40.09,564.18,2511,581,-44.69,-45.14,2509,581,4.0844655,-3.2645264,0.1085177828951877,2.366987,-1.9133606,0.027949480154608946
7056.0,R_MISSISSIPPI_PLATTE_KM2494,HydroWeb,-94.81,39.31,SENTINEL3B,30,226.9,5.93,6146,747,6226,827,9509.49,153.72,301.33,852,507,-32.84,-33.13,853,507,1.6996672,-1.1469269,0.7230079353636307,3.765896,-3.5526886,0.7108422952140734
12310.0,R_YANGTZE_HUA-YANG-HE_KM0560,HydroWeb,116.72,30.1,SENTINEL3B,30,5.7,8.56,8072,11936,8107,11901,4605.24,3527.91,1543.97,2968,600,-4.72,-4.35,2967,599,4.2483144,-0.73548126,0.11718521819747119,3.845751,-0.46445465,0.11843586951589048
10988.0,R_ST-LAWRENCE_CHIPPEWA-TRIB-01_KM1900,HydroWeb,-84.32,43.6,SENTINEL3A,30,184.1,3.87,6838,7651,6813,7676,2928.82,73.99,45.12,957,464,-34.67,-34.56,958,464,1.6004294,-0.9498291,0.11691170633317712,2.0724003,-1.6195374,0.18175736152927735
9873.0,R_ADOUR_GAVE-D-OLORON_KM0056,HydroWeb,-1.01,43.48,JASON3,30,7.8,7.0,10788,7754,10788,7829,6893.84,56.26,11.25,1791,465,49.65,49.67,1791,466,11.093749,-11.066387,0.6051341133270494,1.1444074,-0.9165211,0.5707759096222765
5210.0,R_DOURO_CEA_KM0467,HydroWeb,-5.5,42.06,SENTINEL3A,30,719.4,4.86,5308,9439,5396,9527,10197.28,78.02,22.44,1745,479,55.89,55.49,1746,480,0.79019815,-0.6873169,0.32669562999178076,0.2229288,-0.024230957,0.2578546082403757
4571.0,R_DANUBE_DRAVA_KM1691,HydroWeb,16.78,46.3,SENTINEL3B,30,134.8,6.85,8136,4422,8136,4442,1914.73,80.85,53.2,1968,437,45.25,45.46,1968,437,2.1002617,-1.9854431,0.6769093591139166,2.1002617,-1.9854431,0.6769093591139166
4559.0,R_DANUBE_DRAVA_KM1693,HydroWeb,16.75,46.3,SENTINEL3A,30,134.8,9.36,8108,4417,8108,4437,1686.87,252.3,34.68,1968,437,45.27,45.48,1968,437,4.1395216,-4.073822,0.06540111324115677,4.1395216,-4.073822,0.06540111324115677
7024.0,R_MISSISSIPPI_NORTH-SKUNK_KM2365,HydroWeb,-92.14,41.3,SENTINEL3B,30,198.8,9.71,9353,10520,9428,10445,8860.99,262.65,33.47,877,488,-32.97,-33.04,879,488,2.7130158,2.4887848,0.7237043313849177,1.4008372,-0.88905334,0.7955239478094179
4505.0,R_DANUBE_BEGA-VECHE_KM1349,HydroWeb,20.68,45.58,SENTINEL3B,30,78.0,0.5,813,5350,813,5310,3714.24,41.53,11.25,2008,445,43.43,42.86,2006,446,2.2037902,2.1658554,0.7294843011843501,1.1264212,0.9219589,0.3151574301607222
4504.0,R_DANUBE_BEGA-VECHE_KM1360,HydroWeb,20.78,45.64,SENTINEL3B,30,79.2,15.99,976,5280,933,5237,4859.75,59.77,2.25,2008,445,43.35,42.79,2009,444,1.95664,1.8700333,0.5323508297376209,1.2854308,1.1109848,0.4104164694469818
4506.0,R_DANUBE_BERETTYO_KM1637,HydroWeb,21.27,47.07,SENTINEL3B,30,87.0,23.02,1633,3624,1535,3526,12579.34,1583.41,11.25,2015,431,41.59,41.94,2013,430,4.468705,4.428276,0.0035112120558800156,1.0494758,0.9510956,0.45177827294310735
6309.0,R_LOIRE_ANGLIN_KM0311,HydroWeb,0.96,46.6,SENTINEL3A,30,73.6,13.9,1226,4017,1159,4084,7613.28,76.36,11.25,1812,434,47.78,47.97,1810,435,1.5531318,-1.425415,0.13320351324240057,0.9409014,0.545166,0.019881274599466793
6352.0,R_LOIRE_MAINE_KM0134,HydroWeb,-0.54,47.5,SENTINEL3A,30,15.0,8.85,11451,3099,11356,3004,10598.09,106.52,439.05,1797,426,47.6,47.83,1795,425,1.3880663,1.2742586,0.8419578696906007,1.7742373,-1.6676064,0.810786317421051
4669.0,R_DANUBE_MURA_KM1702,HydroWeb,16.78,46.38,SENTINEL3A,30,140.6,0.24,8070,4412,8140,4342,7889.26,58.79,144.97,1967,437,45.19,45.41,1969,436,4.77355,4.74469,0.5342842915263917,2.1890602,-2.1360016,0.7184598418160364
12888.0,R_RHINE_NIEDERBACHEL_KM0820,HydroWeb,7.3,48.83,JASON2,30,197.3,0.31,8772,1535,8772,1441,11614.39,2998.72,0.0,1873,413,48.96,48.56,1873,412,4.497477,-4.452362,0.11796738754493807,10.622263,-10.604874,0.09358049412339872
8739.0,R_RHONE_GARDON_KM0081,HydroWeb,4.61,43.85,SENTINEL3A,30,11.6,7.42,5546,7375,5527,7375,1300.69,79.69,436.83,1846,461,50.04,50.2,1847,462,4.7583675,4.747979,0.7934414222941556,2.4196458,2.078826,0.6219146111174066
11147.0,R_SUSQUEHANNA_CHEMUNG_KM0471,HydroWeb,-76.53,41.96,SENTINEL3A,30,221.0,4.2,4194,9679,4161,9646,3674.25,138.5,111.22,1035,481,-33.84,-33.46,1035,481,7.601736,-7.564575,-0.14195993527028805,7.601736,-7.564575,-0.14195993527028805
8750.0,R_RHONE_RHONE_KM0326,HydroWeb,4.82,45.63,JASON2,30,153.3,2.86,5770,5243,5776,5249,817.7,194.4,127.97,1849,444,50.36,50.04,1849,444,1.1461474,0.8895569,0.7048319020043653,1.1461474,0.8895569,0.7048319020043653
4659.0,R_DANUBE_KOLUBARA_KM1259,HydroWeb,20.21,44.65,SENTINEL3B,30,70.8,10.31,227,6390,257,6420,3458.49,104.29,308.12,2002,454,44.47,43.81,2003,454,2.650144,2.3295898,0.697831162812609,2.444263,2.1074524,0.7143006240667421
9595.0,R_ZAVKHAN-GOL_KHOVD-GOL_KM0534,HydroWeb,90.91,49.28,SENTINEL3A,30,1410.5,8.81,1014,868,1088,868,4421.87,199.58,27.94,2708,407,-45.08,-44.33,2710,408,28.172106,28.160645,0.4935227242414034,19.163727,-19.145264,0.5021673533238719
9594.0,R_ZAVKHAN-GOL_KHOVD-GOL_KM0544,HydroWeb,90.82,49.31,SENTINEL3A,30,1417.8,13.03,972,849,997,824,2167.44,927.82,13.05,2708,407,-45.0,-44.36,2709,407,11.642282,11.551392,-0.5672908583126977,11.165095,-11.100342,-0.591778484303519
9611.0,R_ZAVKHAN-GOL_ZAVKHAN-GOL_KM0035,HydroWeb,93.35,48.85,SENTINEL3B,30,1032.3,2.96,4078,1373,4016,1373,3638.9,853.76,681.25,2734,412,-47.46,-47.74,2735,411,0.9685212,-0.021850586,-0.23050329324041538,1.1367477,-0.8150635,-0.20693548810184698
12785.0,R_KURA_KURA_KM1030,HydroWeb,43.05,41.61,ENVISAT,30,962.6,8.04,3680,10071,3653,10071,1341.22,546.51,53.56,2232,484,23.63,23.73,2232,484,24.450264,-24.36737,0.2651404618883673,24.450264,-24.36737,0.2651404618883673
12447.0,R_YELLOW_HUANG-HE_KM2481,HydroWeb,107.95,40.86,JASON2,30,1031.2,19.3,9579,10915,9534,10960,5397.96,246.53,40.62,2880,492,-38.83,-38.17,2879,492,1.8265244,1.7507324,-0.3566097010496779,1.9728101,1.8353271,-0.4303971495024621
12519.0,R_YELLOW_HUANG-HE_KM2494,HydroWeb,107.82,40.85,SENTINEL3B,30,1033.4,15.13,9376,10930,9376,10982,5087.96,328.82,67.18,2877,492,-39.41,-38.65,2879,492,2.58871,2.5559082,-0.03723225513675522,0.5408171,0.13952637,-0.12291067313287948
12449.0,R_YELLOW_HUANG-HE_KM2553,HydroWeb,107.33,40.64,JASON3,30,1040.4,7.2,8801,11162,8801,11232,6601.99,135.73,101.43,2874,493,-41.26,-40.2,2874,494,0.7062575,0.52404785,0.0641187120991231,1.4516358,1.2398682,0.035785055703188094
6233.0,R_KUBAN_PSHISH_KM0300,HydroWeb,39.6,44.92,SENTINEL3A,30,53.2,24.7,11605,6010,11515,6100,10275.98,125.54,34.36,2198,451,12.68,12.85,2196,451,22.483759,22.470348,0.6499797361723847,5.046413,-4.9892387,0.6740375641515218
10616.0,R_SAKARYA_SAKARYA-NEHRI_KM0177,HydroWeb,30.03,40.36,SENTINEL3B,30,86.8,10.39,42,11501,42,11566,6035.86,53.4,66.85,2101,496,37.98,37.23,2101,497,17.047047,-17.028152,0.48475298503692993,2.1213772,-1.7690201,0.4969305784816117
2687.0,R_AMUR_ANIUI_KM0787,HydroWeb,136.72,49.26,SENTINEL3A,30,49.4,11.46,8072,882,8065,889,822.8,48.97,42.47,3167,408,21.64,21.53,3167,408,8.611338,-8.558598,0.17884687656205422,8.611338,-8.558598,0.17884687656205422
9935.0,R_EVROS_ARDA_KM0182,HydroWeb,26.43,41.64,SENTINEL3A,30,39.9,1.18,7664,9971,7722,10029,6677.67,56.81,46.54,2064,483,40.21,40.09,2064,484,2.7859914,2.705555,0.40921715738684933,2.5346396,-2.4649506,0.4548646043149609
7353.0,R_NATASHQUAN_NATASHQUAN-TRIB-01_KM0109,HydroWeb,-61.72,50.9,SENTINEL3A,30,70.3,1.16,9956,10916,9936,10916,1201.9,77.39,136.4,1183,391,-14.99,-15.22,1183,392,1.007381,-0.79685974,0.6699287236622234,4.4394665,-4.3984528,0.6704879602726954
9349.0,R_EMS_JUMME_KM0041,HydroWeb,7.64,53.21,SENTINEL3A,30,1.1,1.05,9245,8147,9172,8147,4036.19,186.77,0.0,1878,368,40.85,40.7,1877,368,1.09216,0.99952126,0.16248444525677508,1.0225195,0.9198142,0.11166156670888526
12015.0,R_WESER_FULDA_KM0479,HydroWeb,9.48,51.19,SENTINEL3A,30,148.0,1.25,11329,10573,11375,10573,2729.73,160.07,11.25,1895,389,46.9,47.06,1895,388,1.5112163,1.2694244,0.1796278760553778,5.0312734,-4.9724426,0.1059204513410008
4828.0,R_DNIEPR_DESNA_KM1663,HydroWeb,34.27,53.18,SENTINEL3B,30,137.9,1.79,5111,8176,5124,8189,1409.18,15.69,40.67,2143,368,16.68,16.44,2143,369,4.7533393,-4.662613,0.30001135538180923,6.52804,-6.475403,0.3111852330016054
11672.0,R_VOLGA_IARAN_KM2446,HydroWeb,48.23,57.59,SENTINEL3A,30,82.6,10.21,9876,2843,9876,2889,4360.43,100.09,66.38,2283,324,6.59,6.54,2282,325,0.97959644,-0.78671265,0.757565701668817,0.9764478,-0.78401184,0.7606573219492734
11744.0,R_VOLGA_KUD-MA_KM2316,HydroWeb,43.81,56.12,SENTINEL3A,30,63.9,0.1,4488,4573,4569,4654,8595.69,30.6,466.98,2237,338,8.09,8.14,2238,340,13.6428585,-13.459244,0.675260904656932,1.008852,-0.5058365,0.4520204452288833
11748.0,R_VOLGA_LIUNDA_KM2138,HydroWeb,45.93,56.55,SENTINEL3A,30,65.2,1.16,7178,4069,7112,4135,7055.35,60.6,155.69,2260,334,6.37,6.41,2260,335,0.9806957,0.10726929,0.7840123647982785,0.6776686,0.3775406,0.7993237458282252
4998.0,R_DNIEPR_STIR_KM1480,HydroWeb,26.46,52.02,SENTINEL3B,30,130.6,6.57,7662,9479,7757,9574,10337.86,55.4,41.5,2064,380,26.74,26.88,2065,380,1.3524727,-1.197937,0.4615869272573428,0.7360266,0.09761047,0.42446668400668097
9200.0,R_LIELUPE_IECAVA_KM0084,HydroWeb,24.0,56.64,SENTINEL3B,30,2.9,0.0,4803,4031,4803,4028,239.08,40.74,0.0,2041,334,22.31,21.71,2040,334,1.0770615,0.913306,0.48327116550342714,0.8839884,0.6681442,0.4591615446003721
4846.0,R_DNIEPR_DRUT_KM1344,HydroWeb,30.02,53.07,SENTINEL3A,30,127.2,12.64,52,8331,32,8311,1655.93,726.97,59.07,2101,370,19.62,19.35,2101,370,1.1652826,0.7542877,0.3097007800342997,1.1652826,0.7542877,0.3097007800342997
7587.0,R_NEMAN_SHESHUPE_KM0148,HydroWeb,22.61,54.99,SENTINEL3A,30,8.2,5.01,3050,5924,3138,6012,9523.62,136.16,192.32,2026,350,25.37,25.16,2027,351,7.161352,-7.0316963,0.3979112779538454,1.0686859,-0.7354183,0.5493285461127622
7590.0,R_NEMAN_SVENTOJI_KM0266,HydroWeb,24.44,55.08,SENTINEL3A,30,42.2,9.64,5323,5938,5323,5905,3019.05,42.59,75.67,2045,350,24.41,24.13,2044,350,0.9533677,0.47379303,0.3881138044834001,0.85862625,-0.43024826,0.39913351488018745
7597.0,R_NEMAN_ZAPADNAIA-BEREZINA_KM0762,HydroWeb,26.04,53.82,SENTINEL3A,30,126.0,5.59,7248,7480,7248,7421,5399.39,73.59,11.25,2062,363,25.33,25.36,2061,362,2.2427502,-2.0800476,0.4251410432359467,3.2754643,-3.1659012,0.42480546695502586
11468.0,R_URAL_BOL-SHOI-IK_KM1673,HydroWeb,56.47,51.84,SENTINEL3B,30,144.3,18.53,7765,9884,7765,9791,8573.42,54.82,44.39,2366,383,-15.14,-15.21,2365,382,6.96035,6.9253387,0.4567332391617802,0.996068,-0.56185913,0.3350069810883422
12113.0,R_WISLA_KAMIENNA_KM0611,HydroWeb,21.77,51.07,SENTINEL3A,30,125.9,1.39,2176,10723,2122,10723,3107.44,93.17,344.4,2019,390,33.93,34.35,2018,390,3.2546074,-3.1938782,0.45117199597435637,4.7798276,-4.7296524,0.4541679814663302
5001.0,R_DNIEPR_SUDOST_KM1496,HydroWeb,33.33,52.32,SENTINEL3A,30,122.5,6.49,4084,9211,3994,9211,5047.23,101.64,87.47,2134,377,19.06,18.67,2135,377,3.4052927,-3.3242493,0.7048879455936128,4.0299883,-3.9116516,0.6423715996658694
12132.0,R_WISLA_RADOMKA_KM0508,HydroWeb,21.4,51.68,SENTINEL3B,30,101.0,2.72,1761,9985,1675,9985,4938.7,111.19,276.45,2015,384,32.97,32.95,2014,384,5.3856983,-5.3532944,0.20110308223326773,6.1927266,-6.162056,0.2132728051034973
12137.0,R_WISLA_SAN_KM0655,HydroWeb,21.88,50.7,SENTINEL3B,30,136.6,11.66,2193,11156,2257,11156,3747.72,129.92,252.82,2020,393,34.59,35.09,2019,393,3.1531055,-3.1294403,0.3777139709536022,7.309233,-7.294037,0.6821236804497581
9145.0,R_NEVA_TSNA_KM0598,HydroWeb,34.35,57.53,SENTINEL3A,30,160.7,6.73,5319,2864,5218,2965,10532.78,108.65,623.07,2144,324,15.68,15.58,2143,326,3.268492,-3.2147217,-0.04782540541130947,3.1656585,-3.0775146,-0.19851600919454926
2977.0,R_AMUR_NIMELEN_KM0581,HydroWeb,136.15,52.96,SENTINEL3B,30,117.6,6.9,7377,8354,7377,8443,8273.77,24.21,43.52,3162,370,17.05,17.25,3162,371,10.9306555,-10.86454,0.655819459401591,3.4912572,3.2261734,0.5689938790364655
2967.0,R_AMUR_ZEIA_KM2235,HydroWeb,128.53,51.83,SENTINEL3A,30,162.0,8.4,10241,9797,10241,9804,474.28,247.39,263.11,3086,383,10.19,10.36,3086,383,1.2633086,-0.5132141,-0.0443133320896938,1.2633086,-0.5132141,-0.0443133320896938
11781.0,R_VOLGA_NUGUSH_KM3007,HydroWeb,56.36,53.03,SENTINEL3A,30,205.6,6.74,7728,8457,7638,8367,9741.74,57.69,60.67,2366,371,-11.46,-11.52,2365,370,21.051678,21.045242,0.14171353566265146,2.6235816,2.6068726,0.31346580503940963
12788.0,R_LAGARFLJOT_LAGARFLJOT_KM0009,HydroWeb,-14.31,65.58,JASON3,30,3.3,5.16,6784,5248,6832,5296,5057.5,268.38,293.47,1657,244,64.46,64.23,1657,245,2.4588985,-2.3558822,0.23953079643637037,2.85001,-2.7755136,0.2681722628496446
